{
    "type": "FeatureCollection",
    "features": [
      {
        "type": "Feature",
        "properties": {"cityname": "Istanbul", "country": "Turkey",  "population": 15655924},
        "geometry": {
          "coordinates": [
           28.955,  41.013611
          ],
          "type": "Point"
        }
      },
      
      {
        "type": "Feature",
        "properties": {"cityname": "London", "country": "United Kingdom",  "population": 8926568 },
        "geometry": {
          "coordinates": [
            -0.1275, 51.507222 	
          ],
          "type": "Point"
        }
      },

      {
        "type": "Feature",
        "properties": {"cityname": "Berlin", "country": "Germany",  "population": 3755251},
        "geometry": {
          "coordinates": [
            13.405, 52.52
          ],
          "type": "Point"
        }
      },
      {
        "type": "Feature",
        "properties": {"cityname": "Rome", "country": "Italy",  "population": 2755309},
        "geometry": {
          "coordinates": [
            12.482778, 41.893333
          ],
          "type": "Point"
        }
      },
      {
        "type": "Feature",
        "properties": {"cityname": "Baku", "country": "Azerbaijan",  "population": 2336600},
        "geometry": {
          "coordinates": [
            49.882222, 40.395278	

          ],
          "type": "Point"
        }
      }
    ]
  }
